$GPGGA,125025.009,5433.2786,N,00543.8191,W,0,00,00.0,18.3,M,55.7,M,,*43
$GPRMC,125025.009,V,5433.2786,N,00543.8191,W,0.00,0.00,241207,,,A*68
$GPGGA,125026.009,5433.2786,N,00543.8191,W,0,00,00.0,18.3,M,55.7,M,,*40
$GPGSA,A,1,,,,,,,,,,,,,0.0,0.0,0.0*30
$GPGSV,3,1,11,3,77,269,34,8,13,334,30,15,06,039,28,16,46,169,*76
$GPGSV,3,2,11,18,38,086,35,19,45,275,39,21,29,059,49,22,30,135,*7C
$GPGSV,3,3,11,25,24,288,,26,07,030,31,27,22,309,27,,,,*42
$GPRMC,125026.009,V,5433.2786,N,00543.8191,W,0.00,0.00,241207,,,A*6B
$GPGGA,125027.009,5433.2786,N,00543.8191,W,0,00,00.0,18.3,M,55.7,M,,*41
$GPRMC,125027.009,V,5433.2786,N,00543.8191,W,0.00,0.00,241207,,,A*6A
$GPGGA,125028.008,5433.2786,N,00543.8191,W,0,00,00.0,18.3,M,55.7,M,,*4F
$GPRMC,125028.008,V,5433.2786,N,00543.8191,W,0.00,0.00,241207,,,A*64
$GPGGA,125029.008,5433.2786,N,00543.8191,W,0,00,00.0,18.3,M,55.7,M,,*4E
$GPGSA,A,1,,,,,,,,,,,,,0.0,0.0,0.0*30
$GPGSV,3,1,11,3,77,269,34,8,13,334,30,15,06,039,28,16,46,169,*76
$GPGSV,3,2,11,18,38,086,34,19,45,275,38,21,29,059,49,22,30,135,*7C
$GPGSV,3,3,11,25,24,288,,26,07,030,30,27,22,309,26,,,,*42
$GPRMC,125029.008,V,5433.2786,N,00543.8191,W,0.00,0.00,241207,,,A*65
$GPGGA,125030.008,5433.2786,N,00543.8191,W,0,00,00.0,18.3,M,55.7,M,,*46
$GPRMC,125030.008,V,5433.2786,N,00543.8191,W,0.00,0.00,241207,,,A*6D
$GPGGA,125031.008,5433.2786,N,00543.8191,W,0,00,00.0,18.3,M,55.7,M,,*47
$GPRMC,125031.008,V,5433.2786,N,00543.8191,W,0.00,0.00,241207,,,A*6C
$GPGGA,125032.008,5433.2786,N,00543.8191,W,0,00,00.0,18.3,M,55.7,M,,*44
$GPGSA,A,1,,,,,,,,,,,,,0.0,0.0,0.0*30
$GPGSV,3,1,11,3,77,269,34,8,13,334,29,15,06,039,27,16,46,169,*71
$GPGSV,3,2,11,18,38,086,34,19,45,275,38,21,29,059,49,22,30,135,*7C
$GPGSV,3,3,11,25,24,288,,26,07,030,29,27,22,309,26,,,,*4A
$GPRMC,125032.008,V,5433.2786,N,00543.8191,W,0.00,0.00,241207,,,A*6F
$GPGGA,125033.007,5433.2786,N,00543.8191,W,0,00,00.0,18.3,M,55.7,M,,*4A
$GPRMC,125033.007,V,5433.2786,N,00543.8191,W,0.00,0.00,241207,,,A*61
$GPGGA,125034.007,5433.2786,N,00543.8191,W,0,00,00.0,18.3,M,55.7,M,,*4D
$GPRMC,125034.007,V,5433.2786,N,00543.8191,W,0.00,0.00,241207,,,A*66
$GPGGA,125035.007,5433.2786,N,00543.8191,W,0,00,02.9,18.3,M,55.7,M,,*47
$GPGSA,A,3,,,,,,,,,,,,,6.6,2.9,5.9*35
$GPGSV,3,1,11,3,77,268,34,8,12,333,29,15,06,039,26,16,46,169,*77
$GPGSV,3,2,11,18,37,086,34,19,44,275,38,21,28,059,49,22,30,135,*73
$GPGSV,3,3,11,25,24,288,,26,07,030,28,27,22,309,25,,,,*48
$GPRMC,125035.007,V,5433.2786,N,00543.8191,W,0.00,0.00,241207,,,A*67
$GPGGA,125036.007,5433.2642,N,00543.8157,W,1,04,02.9,10.3,M,55.7,M,,*4A
$GPRMC,125036.007,A,5433.2642,N,00543.8157,W,0.00,275.42,241207,,,A*76
$GPGGA,125037.007,5433.2644,N,00543.8161,W,1,05,03.6,10.2,M,55.7,M,,*46
$GPRMC,125037.007,A,5433.2644,N,00543.8161,W,0.00,275.42,241207,,,A*74
$GPGGA,125038.007,5433.2646,N,00543.8168,W,1,05,03.6,10.1,M,55.7,M,,*41
$GPGSA,A,3,03,08,18,19,21,,,,,,,,6.0,3.6,4.7*3B
$GPGSV,3,1,11,3,77,268,35,8,12,333,29,15,06,039,25,16,45,169,*76
$GPGSV,3,2,11,18,37,086,33,19,44,275,38,21,28,059,49,22,30,134,*75
$GPGSV,3,3,11,25,24,288,,26,07,029,28,27,22,309,25,,,,*40
$GPRMC,125038.007,A,5433.2646,N,00543.8168,W,0.00,275.42,241207,,,A*70
$GPGGA,125039.007,5433.2648,N,00543.8174,W,1,05,03.6,10.3,M,55.7,M,,*41
$GPRMC,125039.007,A,5433.2648,N,00543.8174,W,0.00,315.00,241207,,,A*73
$GPGGA,125040.007,5433.2651,N,00543.8171,W,1,05,03.6,9.6,M,55.7,M,,*7F
$GPRMC,125040.007,A,5433.2651,N,00543.8171,W,0.00,315.00,241207,,,A*70
$GPGGA,125041.006,5433.2656,N,00543.8172,W,1,05,03.6,8.8,M,55.7,M,,*74
$GPGSA,A,3,03,08,18,19,21,,,,,,,,6.0,3.6,4.7*3B
$GPGSV,3,1,11,3,77,268,35,8,12,333,29,15,06,039,25,16,45,169,*76
$GPGSV,3,2,11,18,37,086,33,19,44,275,38,21,28,059,49,22,30,134,*75
$GPGSV,3,3,11,25,24,288,,26,07,029,27,27,22,309,25,,,,*4F
$GPRMC,125041.006,A,5433.2656,N,00543.8172,W,0.00,315.00,241207,,,A*74
$GPGGA,125042.006,5433.2658,N,00543.8173,W,1,05,03.6,8.0,M,55.7,M,,*70
$GPRMC,125042.006,A,5433.2658,N,00543.8173,W,0.00,315.00,241207,,,A*78
$GPGGA,125043.006,5433.2661,N,00543.8176,W,1,05,03.6,7.6,M,55.7,M,,*77
$GPRMC,125043.006,A,5433.2661,N,00543.8176,W,0.00,315.00,241207,,,A*76
$GPGGA,125044.006,5433.2663,N,00543.8176,W,1,05,03.6,7.5,M,55.7,M,,*71
$GPGSA,A,3,03,08,18,19,21,,,,,,,,6.0,3.6,4.7*3B
$GPGSV,3,1,11,3,77,268,35,8,12,333,29,15,06,039,25,16,45,169,*76
$GPGSV,3,2,11,18,37,086,33,19,44,275,38,21,28,059,49,22,30,134,*75
$GPGSV,3,3,11,25,24,288,,26,07,029,27,27,22,309,26,,,,*4C
$GPRMC,125044.006,A,5433.2663,N,00543.8176,W,0.00,315.00,241207,,,A*73
$GPGGA,125045.006,5433.2665,N,00543.8177,W,1,05,03.6,7.4,M,55.7,M,,*76
$GPRMC,125045.006,A,5433.2665,N,00543.8177,W,0.00,315.00,241207,,,A*75
$GPGGA,125046.005,5433.2667,N,00543.8177,W,1,05,03.6,7.3,M,55.7,M,,*73
$GPRMC,125046.005,A,5433.2667,N,00543.8177,W,0.00,315.00,241207,,,A*77
$GPGGA,125047.005,5433.2670,N,00543.8178,W,1,05,03.6,7.5,M,55.7,M,,*7D
$GPGSA,A,3,03,08,18,19,21,,,,,,,,6.0,3.6,4.7*3B
$GPGSV,3,1,11,3,77,268,36,8,12,333,28,15,06,039,24,16,45,169,*75
$GPGSV,3,2,11,18,37,085,32,19,44,275,38,21,28,059,48,22,30,134,*76
$GPGSV,3,3,11,25,24,288,,26,07,029,27,27,22,309,26,,,,*4C
$GPRMC,125047.005,A,5433.2670,N,00543.8178,W,0.00,315.00,241207,,,A*7F
$GPGGA,125048.005,5433.2674,N,00543.8179,W,1,05,03.6,7.8,M,55.7,M,,*7A
$GPRMC,125048.005,A,5433.2674,N,00543.8179,W,0.00,315.00,241207,,,A*75
$GPGGA,125049.005,5433.2675,N,00543.8179,W,1,05,03.6,8.0,M,55.7,M,,*7D
$GPRMC,125049.005,A,5433.2675,N,00543.8179,W,0.00,315.00,241207,,,A*75
$GPGGA,125050.004,5433.2677,N,00543.8179,W,1,05,03.6,7.7,M,55.7,M,,*7E
$GPGSA,A,3,03,08,18,19,21,,,,,,,,6.0,3.6,4.7*3B
$GPGSV,3,1,11,3,77,268,36,8,12,333,28,15,06,039,23,16,45,169,*72
$GPGSV,3,2,11,18,37,085,31,19,44,275,38,21,28,059,48,22,30,134,*75
$GPGSV,3,3,11,25,24,288,,26,07,029,28,27,22,309,26,,,,*43
$GPRMC,125050.004,A,5433.2677,N,00543.8179,W,0.00,315.00,241207,,,A*7E
$GPGGA,125051.004,5433.2678,N,00543.8178,W,1,05,03.6,8.2,M,55.7,M,,*7B
$GPRMC,125051.004,A,5433.2678,N,00543.8178,W,0.00,315.00,241207,,,A*71
$GPGGA,125052.004,5433.2678,N,00543.8178,W,1,05,03.6,8.2,M,55.7,M,,*78
$GPRMC,125052.004,A,5433.2678,N,00543.8178,W,0.00,315.00,241207,,,A*72
$GPGGA,125053.004,5433.2680,N,00543.8179,W,1,05,03.6,8.5,M,55.7,M,,*78
$GPGSA,A,3,03,08,18,19,21,,,,,,,,6.0,3.6,4.7*3B
$GPGSV,3,1,11,3,77,268,36,8,12,333,28,15,06,039,22,16,45,169,*73
$GPGSV,3,2,11,18,37,085,31,19,44,275,38,21,28,059,48,22,30,134,*75
$GPGSV,3,3,11,25,24,288,,26,07,029,28,27,22,309,26,,,,*43
$GPRMC,125053.004,A,5433.2680,N,00543.8179,W,0.00,315.00,241207,,,A*75
$GPGGA,125054.004,5433.2681,N,00543.8180,W,1,05,03.6,8.4,M,55.7,M,,*79
$GPRMC,125054.004,A,5433.2681,N,00543.8180,W,0.00,315.00,241207,,,A*75
$GPGGA,125055.003,5433.2685,N,00543.8181,W,1,05,03.6,8.8,M,55.7,M,,*76
$GPRMC,125055.003,A,5433.2685,N,00543.8181,W,0.00,315.00,241207,,,A*76
$GPGGA,125056.003,5433.2688,N,00543.8182,W,1,05,03.6,9.2,M,55.7,M,,*70
$GPGSA,A,3,03,08,18,19,21,,,,,,,,6.0,3.6,4.7*3B
$GPGSV,3,1,11,3,77,268,36,8,12,333,28,15,06,039,23,16,45,169,*72
$GPGSV,3,2,11,18,37,085,31,19,44,275,38,21,28,059,48,22,30,134,*75
$GPGSV,3,3,11,25,24,288,,26,07,029,28,27,22,309,26,,,,*43
$GPRMC,125056.003,A,5433.2688,N,00543.8182,W,0.00,315.00,241207,,,A*7B
$GPGGA,125057.003,5433.2689,N,00543.8182,W,1,05,03.6,9.1,M,55.7,M,,*73
$GPRMC,125057.003,A,5433.2689,N,00543.8182,W,0.00,315.00,241207,,,A*7B
$GPGGA,125058.003,5433.2693,N,00543.8182,W,1,05,03.6,9.8,M,55.7,M,,*7E
$GPRMC,125058.003,A,5433.2693,N,00543.8182,W,0.00,315.00,241207,,,A*7F
$GPGGA,125059.002,5433.2694,N,00543.8183,W,1,06,03.6,10.1,M,55.7,M,,*4A
$GPGSA,A,3,03,08,18,19,21,26,,,,,,,6.0,3.6,4.8*30
$GPGSV,3,1,11,3,77,268,35,8,12,333,28,15,06,039,23,16,45,169,*71
$GPGSV,3,2,11,18,37,085,31,19,44,275,39,21,28,059,48,22,30,134,*74
$GPGSV,3,3,11,25,24,288,,26,07,029,28,27,22,309,27,,,,*42
$GPRMC,125059.002,A,5433.2694,N,00543.8183,W,0.00,315.00,241207,,,A*79
$GPGGA,125100.002,5433.2696,N,00543.8184,W,1,06,03.6,10.3,M,55.7,M,,*40
$GPRMC,125100.002,A,5433.2696,N,00543.8184,W,0.00,315.00,241207,,,A*71
$GPGGA,125101.002,5433.2698,N,00543.8183,W,1,06,03.6,10.6,M,55.7,M,,*4D
$GPRMC,125101.002,A,5433.2698,N,00543.8183,W,0.00,315.00,241207,,,A*79
$GPGGA,125102.002,5433.2702,N,00543.8183,W,1,06,03.6,11.4,M,55.7,M,,*4F
$GPGSA,A,3,03,08,18,19,21,26,,,,,,,6.0,3.6,4.8*30
$GPGSV,3,1,11,3,77,268,35,8,12,333,28,15,06,039,24,16,45,169,*76
$GPGSV,3,2,11,18,37,085,31,19,45,275,39,21,28,059,48,22,30,134,*75
$GPGSV,3,3,11,25,24,288,,26,07,029,28,27,22,309,28,,,,*4D
$GPRMC,125102.002,A,5433.2702,N,00543.8183,W,0.00,315.00,241207,,,A*78
$GPGGA,125103.002,5433.2705,N,00543.8183,W,1,06,03.6,12.3,M,55.7,M,,*4D
$GPRMC,125103.002,A,5433.2705,N,00543.8183,W,0.00,315.00,241207,,,A*7E
$GPGGA,125104.001,5433.2708,N,00543.8183,W,1,06,03.6,12.6,M,55.7,M,,*41
$GPRMC,125104.001,A,5433.2708,N,00543.8183,W,0.00,315.00,241207,,,A*77
$GPGGA,125105.001,5433.2710,N,00543.8183,W,1,07,03.6,13.3,M,55.7,M,,*4C
$GPGSA,A,3,03,08,18,19,21,26,27,,,,,,5.8,3.6,4.6*30
$GPGSV,3,1,11,3,77,268,34,8,12,333,28,15,06,039,25,16,45,169,*76
$GPGSV,3,2,11,18,37,085,31,19,45,275,39,21,28,059,48,22,30,134,*75
$GPGSV,3,3,11,25,24,288,,26,07,029,29,27,22,308,28,,,,*4D
$GPRMC,125105.001,A,5433.2710,N,00543.8183,W,0.00,315.00,241207,,,A*7F
